Name,Sex,Age,Lat,Lon
Peter,M,NA,37.6109,126.9973
Kevin,M,28,37.513342,126.926382
Tim,M,31,37.544581,127.055961
Sally,F,25,37.496756,126.870793
Jay,M,28,37.300349,126.97075
Emily,F,29,37.601854,127.067325
